name	address	status	latitude	longitude
Megawatt Motors		Bungacha yopiq: 09:00	41.321169	69.248253
Tokbor	Toshkent, Chilonzor tumani, Beshyogʻoch mahalla fuqarolar yigʻini	Kun-u tun	41.30884	69.242566
Megawatt Energy	Toshkent, Yakkasaroy tumani, Bobur mahalla fuqarolar yigʻini	Kun-u tun	41.280648	69.258025
Tok Bor	Toshkent, Mirzo Ulugʻbek tumani, Nur mahalla fuqarolar yigʻini	Ish soatlari ko‘rsatilmagan	41.307275	69.295666
Tok bor	Toshkent, Chilonzor tumani, Beshyogʻoch mahalla fuqarolar yigʻini	Ish soatlari ko‘rsatilmagan	41.304837	69.252676
K Watt	Toshkent, Yashnobod tumani, Aviasozlar mavzesi	Kun-u tun	41.288741	69.345206
Tokbor	Toshkent, Mirobod tumani, Turkiston koʻchasi	Kun-u tun	41.291617	69.284584
Spectre Energy		Kun-u tun	41.294956	69.276248
Tokbor	Toshkent, Yunusobod tumani, Qashqar mahalla fuqarolar yigʻini	Kun-u tun	41.310585	69.268754
Megawatt Energy		Kun-u tun	41.316027	69.232277
Tok Bor		Ish soatlari ko‘rsatilmagan	41.294801	69.276401
Tokbor	Toshkent, Shayxontohur tumani, Labzak mahalla fuqarolar yigʻini	Kun-u tun	41.330922	69.271351
Tokbor	Toshkent, Chilonzor tumani, Lutfiy mahalla fuqarolar yigʻini, Asrlar Sadosi ko‘chasi	Kun-u tun	41.300062	69.203763
Megawatt Energy	Toshkent, Yunusobod tumani, Buyuk Turon mahalla fuqarolar yigʻini	Kun-u tun	41.321099	69.288242
Tokbor		Kun-u tun	41.292699	69.210611
Nd Charger	Toshkent, Oʻzbekiston ovozi koʻchasi	Kun-u tun	41.311507	69.286332
Spectre Energy	Toshkent, Qoraqamish koʻchasi	Bungacha yopiq: 09:00	41.358334	69.213035
Megawatt Energy		Kun-u tun	41.321268	69.248002
Tokbor	Toshkent, Mehrjon koʻchasi	Kun-u tun	41.288049	69.28455
Tok Bor		Kun-u tun	41.310895	69.282744
Megawatt Energy	Toshkent, Shivli 2-koʻchasi	Kun-u tun	41.333495	69.287138
Megawatt Energy	Toshkent, Beshqayragʻoch koʻchasi	Kun-u tun	41.322621	69.195273
Tokbor	Toshkent, Chilonzor tumani, Chilonzor dahasi, 2-mavze	Kun-u tun	41.27576	69.223802
Tok Bor	Toshkent, Yakkasaroy tumani, Damariq mahalla fuqarolar yigʻini	Kun-u tun	41.271917	69.261637
Tok bor	Toshkent, Soy Boʻyi turar-joy majmuasi	Kun-u tun	41.297638	69.17536
Tok Bor	Toshkent, Bog‘saroy ko‘chasi	Kun-u tun	41.293914	69.264606
Tokbor	Toshkent, Seul koʻchasi	Kun-u tun	41.301224	69.247691
Ebb Charger	Toshkent, Xadra koʻchasi	Kun-u tun	41.320269	69.252975
Quwatt		Kun-u tun	41.294693	69.221207
Voltauto		Kun-u tun	41.326837	69.252681
Tokbor	Toshkent, Mirobod tumani, Mironshoh 7-tor ko'chasi	Kun-u tun	41.286462	69.274198
Tokbor		Kun-u tun	41.279908	69.268988
Spectre Energy		Kun-u tun	41.347921	69.254376
Megawatt Energy		Kun-u tun	41.286424	69.215705
Tokbor		Kun-u tun	41.334119	69.285374
Tok Bor	Toshkent, Yashnobod tumani, Mahtumquli koʻchasi	Kun-u tun	41.304306	69.322763
Tok bor		Kun-u tun	41.278088	69.198
Tokbor	Toshkent, Chilonzor tumani, Chilonzor dahasi, S-mavze	Kun-u tun	41.276446	69.204707
Spectre Energy	Toshkent viloyati, Zangiota tumani, Eshongʻuzor shaharchasi	Kun-u tun	41.242728	69.161477
Tokbor		Kun-u tun	41.328041	69.265362
Megawatt Energy	Toshkent, Chilonzor tumani, Xiva ko'chasi	Kun-u tun	41.295053	69.227923
Tok bor		Kun-u tun	41.306537	69.337425
Spectre Energy		Kun-u tun	41.300534	69.217628
Tok Bor		Kun-u tun	41.339216	69.206277
Tokbor		Kun-u tun	41.325564	69.335587
Tok Bor	Toshkent, Ismoil Ota koʻchasi	Kun-u tun	41.332816	69.32304
Tok bor		Kun-u tun	41.367492	69.290653
Tokbor		Kun-u tun	41.348284	69.237881
Tok bor		Kun-u tun	41.265198	69.24347
Megawatt Energy		Kun-u tun	41.327774	69.342886
Spectre Energy		Kun-u tun	41.300699	69.27202
Tok bor		Kun-u tun	41.318287	69.280906
Tokbor	Toshkent, Mirobod tumani, Mingoʻrik mahalla fuqarolar yigʻini	Kun-u tun	41.304508	69.282992
Tokbor	Toshkent, Chilonzor tumani, Qozirobod mahalla fuqarolar yigʻini	Kun-u tun	41.278228	69.214554
Spectre Energy		Kun-u tun	41.289852	69.245421
Megawatt energy		Bungacha yopiq: 09:00	41.320978	69.250757
Spectre Energy	Toshkent, Olmazor tumani, Hastimom mahalla fuqarolar yigʻini	Kun-u tun	41.330121	69.244214
Зарядная станция	Toshkent, Yunusobod tumani, Qashqar dahasi	Bungacha yopiq: 09:00	41.319195	69.277848
GreenTE/Tezroq	Toshkent, Tallimarjon koʻchasi	Kun-u tun	41.276419	69.302376
Megawatt Energy		Kun-u tun	41.314379	69.243884
Spectre Energy	Toshkent, Chilonzor tumani, Chilonzor dahasi, 5-mavze	Kun-u tun	41.288768	69.216441
Megawatt Energy		Kun-u tun	41.327449	69.213674
Zaryadlash stantsiyasi		Ish soatlari ko‘rsatilmagan	41.316281	69.252486
Megawatt Energy	Toshkent, Yunusobod tumani, Qashqar mahalla fuqarolar yigʻini	Kun-u tun	41.31139	69.276133
Megawatt Energy	Toshkent, Shota Rustaveli 1-tor koʻchasi	Kun-u tun	41.271499	69.242422
Voltauto	Toshkent, Bodomzor	Kun-u tun	41.335357	69.284138
Spectre Energy	Toshkent, Lutfiy koʻchasi	Kun-u tun	41.285002	69.184578
Tokbor		Kun-u tun	41.256309	69.156286
Tokbor		Kun-u tun	41.319708	69.301354
Trianon Energy	Toshkent, Sergeli tumani, Koʻhna Qumariq mahalla fuqarolar yigʻini	Kun-u tun	41.24379	69.253372
Megawatt Energy	Toshkent, Shayxontohur tumani, Qoratosh mahalla fuqarolar yigʻini	Kun-u tun	41.315092	69.235134
Tokbor	Toshkent, Mustaqillik shoh koʻchasi	Kun-u tun	41.312396	69.283373
Tokbor		Kun-u tun	41.280159	69.218985
Megawatt Energy		Kun-u tun	41.302783	69.314773
Voltauto		Kun-u tun	41.319632	69.227111
Tokbor		Kun-u tun	41.285051	69.198416
Megawatt Energy		Kun-u tun	41.291224	69.271524
Tok Bor	Toshkent, Muqimiy 1-tor koʻchasi	Kun-u tun	41.276696	69.245109
Trianon Energy		Kun-u tun	41.257152	69.204251
GreenTE/Tezroq	Toshkent, Yunusobod tumani, Mirzo Ulugʻbek mahalla fuqarolar yigʻini	Kun-u tun	41.328073	69.284871
Megawatt Energy		Kun-u tun	41.283335	69.235918
K Watt	Toshkent, Yashnobod tumani, Qadriyat mahalla fuqarolar yigʻini	Kun-u tun	41.299581	69.342448
Bbt Q-watt		Ish soatlari ko‘rsatilmagan	41.279011	69.250831
K Watt	Toshkent, Shayxontohur tumani, Ipakchi mahalla fuqarolar yigʻini	Kun-u tun	41.329334	69.195247
Spectre Energy		Kun-u tun	41.268209	69.252512
Spectre		Kun-u tun	41.294363	69.220711
Tokbor		Kun-u tun	41.319603	69.227117
Megawatt Energy		Kun-u tun	41.312331	69.272993
Tokbor	Toshkent, Jarqoʻrgʻon koʻchasi	Kun-u tun	41.266275	69.315117
Tokbor		Kun-u tun	41.2776	69.274458
Mustang Energy		Kun-u tun	41.324154	69.24455
Tezroq	Toshkent, Uchtepa tumani, Zarafshon mahalla fuqarolar yigʻini	Kun-u tun	41.324112	69.157719
Megawatt Energy		Kun-u tun	41.343489	69.229273
Spectre Energy		Kun-u tun	41.281213	69.28995
Megawatt Energy		Kun-u tun	41.338696	69.206174
Megawatt Energy	Toshkent, Olmazor tumani, Nurafshon aylanma koʻchasi	Kun-u tun	41.337055	69.222433
Tokbor	Toshkent, Uchtepa tumani, Hamdoʻst mahalla fuqarolar yigʻini	Kun-u tun	41.272758	69.169268
Spectre Energy		Kun-u tun	41.335496	69.265885
Quwatt		Bungacha yopiq: 09:00	41.265684	69.246039
Tok bor	Toshkent, Dilsaroy koʻchasi	Kun-u tun	41.355894	69.230772
K Watt	Toshkent, Shayxontohur tumani, Yuqori Sebzor mahalla fuqarolar yigʻini	Kun-u tun	41.336552	69.25479
Tokbor	Toshkent, Moviy gumbazlar	Kun-u tun	41.307575	69.269243
Tok Bor	Toshkent, Obid Akromxoʻjayev koʻchasi	Kun-u tun	41.280708	69.242183
Tok Bor		Kun-u tun	41.286844	69.339284
Ebb Charger		Kun-u tun	41.332713	69.294755
K Watt		Kun-u tun	41.270573	69.17007
Megawatt Energy	Toshkent, Alisher Navoiy nomli Oʻzbekiston milliy bogʻi	Kun-u tun	41.298847	69.240104
Tokbor		Kun-u tun	41.252247	69.252022
Tok bor	Toshkent, Uchtepa tumani, Xuroson mahalla fuqarolar yigʻini	Kun-u tun	41.284919	69.184976
GreenTE	Toshkent, O‘rda	Kun-u tun	41.320003	69.264063
Megawatt Energy	Toshkent, Safdosh koʻchasi	Kun-u tun	41.277701	69.241331
Tokbor		Kun-u tun	41.361122	69.302285
Mustang Energy	Toshkent, Markaz-2 Mavzesi	Kun-u tun	41.319671	69.284264
GreenTE/Tezroq	Toshkent, Mirobod tumani, Sharof Rashidov mahalla fuqarolar yigʻini	Kun-u tun	41.308134	69.2766
K Watt		Kun-u tun	41.328088	69.314735
K Watt	Toshkent, Uchtepa tumani, Bogʻobod mahalla fuqarolar yigʻini	Kun-u tun	41.291146	69.180185
K-watt	Toshkent, Mirobod tumani, Bilimdon mahalla fuqarolar yigʻini	Kun-u tun	41.252598	69.312605
K Watt		Kun-u tun	41.277106	69.309273
Tokbor	Toshkent, Bektemir tumani, Toshkent halqa avtomobil yoʼli ko'chasi	Kun-u tun	41.251217	69.355605
UEnergy	Toshkent, Mirzo Ulugʻbek tumani, Yangi Olmachi mahalla fuqarolar yig'ini, Mirzo Ulugʻbek koʻchasi	Kun-u tun	41.3232	69.322727
Megawatt Energy		Kun-u tun	41.322375	69.22022
EBB Charging	Toshkent, Tallimarjon koʻchasi	Kun-u tun	41.278813	69.305312
Tokbor	Toshkent, Yunusobod tumani, Iftixor mahalla fuqarolar yigʻini	Kun-u tun	41.347455	69.281199
Tok Bor - Gibrid	Toshkent tumani, Koʻksaroy shaharchasi, Shifobaxsh suvlar ko'chasi	Kun-u tun	41.353014	69.149434
K-watt		Kun-u tun	41.267144	69.25046
K Watt		Kun-u tun	41.274809	69.263567
Spectre Energy	Toshkent, Shayxontohur tumani, Humdonsoy ko'chasi	Kun-u tun	41.304261	69.206519
Tokbor	Toshkent, Navruz Ethnographic Park	Kun-u tun	41.324403	69.26677
Tokbor	Toshkent, Istiqbol koʻchasi	Kun-u tun	41.302096	69.288561
Tokbor	Toshkent, Yakkasaroy tumani, Qushbegi mahalla fuqarolar yigʻini	Kun-u tun	41.262816	69.23429
Ebb Charging	Toshkent, Shirin koʻchasi	Kun-u tun	41.283605	69.178277
Megawatt Energy	Toshkent, Shayxontohur tumani, Oʻrda mahalla fuqarolar yigʻini	Kun-u tun	41.31418	69.261166
Tokbor	Toshkent, Zenit	Kun-u tun	41.371179	69.260876
Tokbor	Toshkent, Sayhun koʻchasi	Kun-u tun	41.282849	69.302759
K Watt		Kun-u tun	41.271637	69.242205
K Watt		Kun-u tun	41.277079	69.287175
Tok Bor	Toshkent, Sergeli tumani, Oltinvodiy mahalla fuqarolar yigʻini	Kun-u tun	41.263664	69.265742
Kwatt		Kun-u tun	41.27039	69.21036
Ebb Charger		Kun-u tun	41.280163	69.224266
GreenTE/Tezroq	Toshkent, Yunusobod tumani, Yunusobod dahasi, 2-mavze	Kun-u tun	41.360128	69.285185
Megawatt Energy	Toshkent, Yunusobod tumani, Buyuk Turon mahalla fuqarolar yigʻini	Kun-u tun	41.322721	69.283141
Megawatt Energy	Toshkent, Matbuotchilar koʻchasi	Kun-u tun	41.310438	69.276997
K Watt		Kun-u tun	41.376155	69.28041
K Watt		Kun-u tun	41.291831	69.179772
Ebb Charging		Kun-u tun	41.268821	69.212931
Ebb Charging	Toshkent, Abdulla Qahhor koʻchasi	Ish soatlari ko‘rsatilmagan	41.278339	69.262138
Spectre Energy	Toshkent, Xonobodtepa shoh ko‘chasi	Kun-u tun	41.244528	69.268071
Spectre Energy	Toshkent, Sag'bon berk ko'chasi	Kun-u tun	41.330587	69.234983
GreenTE	Toshkent, Shayxontohur tumani, Yangi Shahar mahalla fuqarolar yigʻini	Kun-u tun	41.326436	69.211674
Megawatt Energy	Toshkent, Mirzo Ulugʻbek tumani, Ziyolilar koʻchasi	Kun-u tun	41.33468	69.312295
Tokbor	Toshkent, Uchtepa tumani, Kichik halqa yoʻli	Kun-u tun	41.308109	69.193392
Trianon Energy		Kun-u tun	41.293222	69.234778
Tokbor	Toshkent, Chilonzor tumani, 2-Charx-Kamolon mahalla fuqarolar yigʻini	Kun-u tun	41.295205	69.225001
Megawatt Energy	Toshkent, Foziltepa koʻchasi	Kun-u tun	41.293092	69.17124
Tok Bor	Toshkent, Jarqoʻrgʻon koʻchasi	Ish soatlari ko‘rsatilmagan	41.273547	69.333521
Tok Bor	Toshkent, Islom Karimov nomidagi Toshkent aeroporti	Kun-u tun	41.264771	69.267751
K Watt		Kun-u tun	41.279519	69.294765
K Watt		Kun-u tun	41.280781	69.196088
Megawatt Energy	Toshkent, Kichik Beshyogʻoch koʻchasi	Kun-u tun	41.279424	69.270014
K Watt		Kun-u tun	41.295809	69.341181
K Watt		Kun-u tun	41.31216	69.314124
Tokbor	Toshkent, Mirobod tumani, Sarbon ko'chasi	Kun-u tun	41.252292	69.322133
Megawatt Energy		Kun-u tun	41.329511	69.258852
K Watt	Toshkent, Farhod bozori	Kun-u tun	41.286918	69.188055
Tokbor		Kun-u tun	41.371941	69.286586
EnerGo		Kun-u tun	41.297081	69.293355
Tokbor	Toshkent, Yunusobod tumani, Abdulla Qodiriy koʻchasi	Kun-u tun	41.321639	69.283529
K Watt		Kun-u tun	41.29868	69.350173
Megawatt Energy	Toshkent, Yunusobod tumani, Shahrisabz koʻchasi	Kun-u tun	41.315709	69.283652
Ebb Charger	Toshkent, Yunusobod tumani, Adolat mahalla fuqarolar yigʻini, 4-mavze	Kun-u tun	41.36432	69.275399
Tok Bor		Ish soatlari ko‘rsatilmagan	41.325778	69.290713
Tokbor	Toshkent, Shayxontohur tumani, Beltepa koʻchasi	Kun-u tun	41.334469	69.164222
Spectre Energy	Toshkent, Olmazor tumani, Universitet koʻchasi	Kun-u tun	41.346958	69.207085
Megawatt Energy		Kun-u tun	41.294963	69.228006
Megawatt Energy	Toshkent, Olmazor tumani, Nurafshon aylanma koʻchasi	Kun-u tun	41.339345	69.254139
K Watt		Kun-u tun	41.311142	69.328166
Mustang Energy	Toshkent, Shayxontohur tumani, Bogʻ Koʻcha mahalla fuqarolar yigʻini	Kun-u tun	41.331792	69.218723
Tokbor	Toshkent, Olmazor tumani, Miskin mahalla fuqarolar yigʻini	Kun-u tun	41.351254	69.246212
Mustang Energy	Toshkent, Uchtepa tumani, Chilonzor dahasi, 26-mavze	Kun-u tun	41.278577	69.177787
Megawatt Energy		Kun-u tun	41.271477	69.211583
Mustang Energy	Toshkent, Sergeli tumani, Fayzli 7-tor ko‘chasi	Kun-u tun	41.2375	69.275568
K Watt	Toshkent, Olmazor tumani, Nurafshon aylanma koʻchasi	Kun-u tun	41.337169	69.222621
K Watt	Toshkent, Olmazor tumani, Universitet mahalla fuqarolar yigʻini	Kun-u tun	41.349733	69.21
Megawatt Energy	Toshkent, Yashnobod tumani, Mavlono Riyoziy 1-koʻchasi	Kun-u tun	41.310269	69.313427
K -Watt		Kun-u tun	41.268127	69.181308
Urban Power	Toshkent, Mirobod tumani, Avliyo ota koʻchasi	Ish soatlari ko‘rsatilmagan	41.292208	69.275099
K-watt	Toshkent, Parkent koʻchasi	Kun-u tun	41.315192	69.326241
Megawatt Energy		Kun-u tun	41.316082	69.178284
Tokbor	Toshkent, Oltinsoy koʻchasi	Kun-u tun	41.359678	69.239074
Ebb Charging		Kun-u tun	41.283645	69.165028
EnerGo	Toshkent, Mirobod koʻchasi	Kun-u tun	41.290352	69.277959
Tokbor	Toshkent, Choshtepa koʻchasi	Kun-u tun	41.247551	69.208126
Urban cars		Kun-u tun	41.286426	69.263135
Mustang Energy	Toshkent, Uchtepa tumani, Vatan mahalla fuqarolar yigʻini	Kun-u tun	41.284777	69.175011
Tokbor	Toshkent, Lashkarbegi ko'chasi	Kun-u tun	41.321791	69.294355
Spectre Energy	Toshkent, Dilsaroy koʻchasi	Kun-u tun	41.35471	69.233306
Voltauto	Toshkent, Yunusobod tumani, 1-Otchopar mahalla fuqarolar yigʻini	Kun-u tun	41.35601	69.303523
Tokbor		Kun-u tun	41.260077	69.223385
U. Energy	Toshkent, Mirzo Ulugʻbek tumani, Oqqoʻrgʻon koʻchasi	Kun-u tun	41.325696	69.304743
Spectre Energy		Kun-u tun	41.295777	69.203908
Tok Bor	Toshkent, Oqoltin 1-tor ko‘chasi	Kun-u tun	41.303525	69.233447
Trianon Energy	Toshkent, Chilonzor tumani, Chilonzor dahasi, 20-A mavzesi	Kun-u tun	41.267729	69.19077
K Watt	Toshkent, Yashnobod tumani, Xosiyatli mahalla fuqarolar yigʻini	Kun-u tun	41.27386	69.34289
Megawatt Energy	Toshkent, Xonobodtepa shoh ko‘chasi	Kun-u tun	41.243998	69.297228
Mustang Energy	Toshkent, Uchtepa tumani, Chilonzor dahasi, 15-mavze	Kun-u tun	41.294398	69.178344
Trianon Energy		Kun-u tun	41.357016	69.220511
Telecom Charge		Kun-u tun	41.279057	69.240617
K Watt	Toshkent, Mirobod tumani, Fayziobod 1-tor ko'chasi	Kun-u tun	41.252797	69.302363
K Watt	Toshkent, Sergeli tumani, Koʻhna Qumariq mahalla fuqarolar yigʻini	Kun-u tun	41.243912	69.252365
K Watt		Kun-u tun	41.263707	69.153532
Megawatt Energy		Kun-u tun	41.275773	69.364856
Spectre		Kun-u tun	41.229432	69.204466
Trianon Energy	Toshkent, Uchtepa tumani, Toshkent halqa avtomobil yoʻli	Kun-u tun	41.326554	69.159745
Megawatt Energy	Toshkent, Qoraqamish koʻchasi	Kun-u tun	41.358671	69.206268
Megawatt Energy		Kun-u tun	41.339918	69.166149
K Watt		Kun-u tun	41.315668	69.326099
Tokbor	Toshkent, Neʼmat berk koʻchasi	Kun-u tun	41.337112	69.315161
K Watt	Toshkent, Chilonzor tumani, Bek Toʻpi mahalla fuqarolar yigʻini	Kun-u tun	41.258834	69.188028
Ebb Charger		Kun-u tun	41.316115	69.304315
Megawatt Energy	Toshkent, Olmazor tumani, Ziyo mahalla fuqarolar yigʻini	Kun-u tun	41.35449	69.216461
Tok bor	Toshkent, Mirzo Ulugʻbek tumani, Sayram koʻchasi	Ish soatlari ko‘rsatilmagan	41.327512	69.325134
Trianon Energy		Kun-u tun	41.244005	69.309669
VoltAuto, офис		Bungacha yopiq: 09:00	41.300462	69.288118
Spectre	Toshkent, Sergeli tumani, Qipchoq shoh ko‘chasi	Kun-u tun	41.242194	69.276417
GreenTE quvvatlash stansiyasi		Kun-u tun	41.237359	69.214242
Megawatt Energy	Toshkent, Olmazor tumani, Ziyo mahalla fuqarolar yigʻini	Kun-u tun	41.35449	69.216461
Tok bor	Toshkent, Mirzo Ulugʻbek tumani, Sayram koʻchasi	Ish soatlari ko‘rsatilmagan	41.327512	69.325134
Trianon Energy		Kun-u tun	41.244005	69.309669
VoltAuto, офис		Bungacha yopiq: 09:00	41.300462	69.288118
Spectre	Toshkent, Sergeli tumani, Qipchoq shoh ko‘chasi	Kun-u tun	41.242194	69.276417
GreenTE quvvatlash stansiyasi		Kun-u tun	41.237359	69.214242
EnerGo		Kun-u tun	41.2879	69.29942
Megawatt Energy	Toshkent, Ozod ko‘chasi	Kun-u tun	41.326997	69.22895
Tokbor	Toshkent, Mirzo Ulugʻbek tumani, Qorasuv dahasi, Qorasuv 4-dahasi	Kun-u tun	41.333259	69.375108
Spectre energy	Toshkent, Tepamasjid ko'chasi	Kun-u tun	41.343178	69.335681
Megawatt Energy	Toshkent, Kichik halqa yoʻli	Kun-u tun	41.347852	69.246227
Trianon Energy	Toshkent, Tirsakobod 4-tor koʻchasi	Kun-u tun	41.248188	69.203702
Telecom Charge		Kun-u tun	41.285174	69.268873
Megawatt Energy	Toshkent, Uchtepa tumani, Toshkent halqa avtomobil yoʻli	Kun-u tun	41.324004	69.157906
K Watt		Kun-u tun	41.253899	69.325066
Spectre Energy		Kun-u tun	41.300534	69.217628
Tok Bor		Kun-u tun	41.339216	69.206277
Tokbor	Toshkent, Sergeli tumani, Bobur aholi punkti	Kun-u tun	41.242113	69.219259
Trianon Energy	Toshkent, Yunusobod tumani, Moyqoʻrgʻon koʻchasi	Kun-u tun	41.36877	69.267721
Megawatt Energy	Toshkent, Olmazor tumani, Olmazor Business City turar-joy majmuasi	Kun-u tun	41.349503	69.247664
K Watt	Toshkent, Yashnobod tumani, Qoʻyliq-Markaz dahasi, ТК COMPASS	Kun-u tun	41.24181	69.329
Tokbor	Toshkent, Mirzo Ulugʻbek tumani, Shahriobod koʻchasi	Kun-u tun	41.350915	69.331262
Tokbor		Kun-u tun	41.267584	69.241986
Tokbor		Kun-u tun	41.325564	69.335587
Trianon Energy	Toshkent, Qovunchi koʻchasi	Kun-u tun	41.264215	69.154047
Tokbor	Toshkent, Mirzo Ulugʻbek tumani, Shahriobod koʻchasi	Kun-u tun	41.350915	69.331262
Tokbor		Kun-u tun	41.267584	69.241986
Telecom Charge	Toshkent, Shayxontohur tumani, Koʻkcha Darvoza mahalla fuqarolar yigʻini	Kun-u tun	41.321264	69.20098
Tokbor		Kun-u tun	41.325564	69.335587
K Watt	Toshkent, Sergeli tumani, Bunyodobod mahalla fuqarolar yigʻini	Kun-u tun	41.230296	69.205617
Trianon Energy	Toshkent, Qovunchi koʻchasi	Kun-u tun	41.264215	69.154047
Megawatt Energy	Toshkent, Mirzo Ulugʻbek tumani, Sayram koʻchasi	Kun-u tun	41.327737	69.325091
Tokbor	Toshkent, Beshariq koʻchasi	Kun-u tun	41.28418	69.341684
K Watt		Kun-u tun	41.377088	69.267645
Tokbor	Toshkent, Yashnobod tumani, Shirinobod mahalla fuqarolar yigʻini	Kun-u tun	41.289891	69.320855
Tok Bor	Toshkent, Ismoil Ota koʻchasi	Kun-u tun	41.332816	69.32304
Elektr avtomobillarni quvvatlash stansiyasi	Toshkent, Yakkasaroy tumani, Bobur mahalla fuqarolar yigʻini	Ish soatlari ko‘rsatilmagan	41.273842	69.260318
Tok bor		Kun-u tun	41.367492	69.290653
Megawatt Energy	Toshkent, Sergeli tumani, Yangi Bunyodobod mahalla fuqarolar yigʻini	Kun-u tun	41.231742	69.217514
Tok Bor		Kun-u tun	41.349142	69.166241
Tokbor		Kun-u tun	41.348284	69.237881
EnerGo		Kun-u tun	41.256147	69.208268
VoltAuto	Toshkent, Yakkasaroy tumani, Qushbegi dahasi	Ish soatlari ko‘rsatilmagan	41.268964	69.244124
Mustang Energy	Toshkent, Olmazor tumani, Universitet mahalla fuqarolar yigʻini	Kun-u tun	41.345692	69.207862
Tok Bor	Toshkent, Shayxontohur tumani, Jarariq ko‘chasi	Kun-u tun	41.339322	69.178003
Ebb Charger	Toshkent, Yunusobod tumani, Yunusobod dahasi, 10-mavze	Kun-u tun	41.383275	69.285499
Tezroq	Toshkent, Lokomotiv Park	Kun-u tun	41.355123	69.344481
Voltauto	Toshkent, Buyuk Ipak Yoʻli koʻchasi	Kun-u tun	41.340724	69.3589
Ebb Charging	Toshkent, Mirzo Ulugʻbek tumani, Kichik halqa yoʻli	Kun-u tun	41.329405	69.314392
ND Group		Kun-u tun	41.300608	69.262373
Voltauto	Toshkent, Buyuk Ipak Yoʻli koʻchasi	Kun-u tun	41.340724	69.3589
Ebb Charging	Toshkent, Mirzo Ulugʻbek tumani, Kichik halqa yoʻli	Kun-u tun	41.329405	69.314392
ND Group		Kun-u tun	41.300608	69.262373
Spectre	Toshkent, Sergeli tumani, Yangi Sergeli koʻchasi	Kun-u tun	41.214401	69.228518
Tok bor		Kun-u tun	41.265198	69.24347
Megawatt Energy	Toshkent, Yashnobod tumani, Yangiqoʻrgʻon mahalla fuqarolar yigʻini	Kun-u tun	41.258707	69.357654
Ebb Charger	Toshkent viloyati, Zangiota tumani	Kun-u tun	41.338959	69.163969
Trianon Energy		Kun-u tun	41.34954	69.332439
Tokbor		Kun-u tun	41.215339	69.215642
Megawatt Energy		Kun-u tun	41.327774	69.342886
Tok Bor		Ish soatlari ko‘rsatilmagan	41.329656	69.26273
Tokbor	Toshkent, Bektemir tumani, Nurafshon mahalla fuqarolar yigʻini	Kun-u tun	41.238561	69.327744
EBB Charging		Kun-u tun	41.315431	69.352644
Elektr avtomobillar uchun quvvatlash stansiyasi	Toshkent, Yunusobod tumani, Kichik halqa yoʻli	Ish soatlari ko‘rsatilmagan	41.336971	69.27511
Tok bor	Toshkent, Yangihayot tumani, Yangihayot mahalla fuqarolar yigʻini	Kun-u tun	41.217126	69.198826
Tok bor	Toshkent, Chingiz Aytmatov 1-tor koʻchasi	Kun-u tun	41.327588	69.293097
Tok bor	Toshkent, Mirzo Ulugʻbek tumani, Beshkapa mahalla fuqarolar yigʻini	Kun-u tun	41.355556	69.375865
Spectre Energy		Kun-u tun	41.272545	69.175568
Telecom Charge	Toshkent, Chilonzor tumani, Shuhrat mahalla fuqarolar yigʻini	Kun-u tun	41.26794	69.189704
Tokbor	Toshkent, Xonobodtepa shoh ko‘chasi	Kun-u tun	41.241753	69.212913
EnerGo		Kun-u tun	41.310418	69.319212
K Watt	Toshkent, Mirzo Ulugʻbek tumani, Olmachi mahalla fuqarolar yigʻini	Kun-u tun	41.315147	69.327617
Tok bor		Bungacha yopiq: 08:00	41.336526	69.293127
K Watt	Toshkent, Chilonzor tumani, 1-Al-Xorazmiy dahasi	Kun-u tun	41.258168	69.153677
Mustang Energy	Toshkent, Sergeli tumani, Bobur aholi punkti	Kun-u tun	41.243584	69.229612
Mustang Energy	Toshkent, Sergeli tumani, Bobur aholi punkti	Kun-u tun	41.243584	69.229612
Tokbor		Kun-u tun	41.324187	69.295942
K Watt	Toshkent, Sarikoʻl koʻchasi, 14А	Kun-u tun	41.277249	69.287004
Tok bor	Toshkent, Chilonzor tumani, Yakkabogʻ mahalla fuqarolar yigʻini	Kun-u tun	41.25817	69.194029
Tok bor	Toshkent, Amir Temur shoh koʻchasi	Kun-u tun	41.366505	69.286244
Tok bor		Ish soatlari ko‘rsatilmagan	41.309896	69.272324
Megawatt Energy	Toshkent, Kichik halqa yoʻli	Kun-u tun	41.333457	69.311704
Tok Bor	Toshkent viloyati, Zangiota tumani, Qahramon aholi punkti	Kun-u tun	41.226419	69.127744
Mustang Energy	Toshkent, Yunusobod tumani, Yangitarnov mahalla fuqarolar yigʻini	Kun-u tun	41.341027	69.300694
Trianon Energy	Toshkent, Chilonzor tumani, Yakkabogʻ mahalla fuqarolar yigʻini	Kun-u tun	41.257923	69.193992
Telecom Charge		Kun-u tun	41.277705	69.303273
Megawatt Energy		Kun-u tun	41.339857	69.25397
Tokbor	Toshkent, Sergeli tumani, Yuqori Darxon mahalla fuqarolar yigʻini	Kun-u tun	41.236938	69.20925
Voltauto	Toshkent, Bektemir tumani, Bektemir mahalla fuqarolar yigʻini	Kun-u tun	41.23244	69.332874
Spectre	Toshkent, Gavhar koʻchasi	Ish soatlari ko‘rsatilmagan	41.259281	69.213171
Spectre Energy	Toshkent, Yunusobod tumani, Posira mahalla fuqarolar yigʻini	Kun-u tun	41.351808	69.329646
Spectre	Toshkent, Zarafshon koʻchasi	Ish soatlari ko‘rsatilmagan	41.313675	69.274749
Megawatt Energy	Toshkent, Sirg'ali 4-ko'chasi	Kun-u tun	41.215595	69.219672
Tokbor	Toshkent, Istiqlol koʻchasi	Kun-u tun	41.31139	69.284701
Tokbor	Toshkent, Amir Temur shoh koʻchasi	Kun-u tun	41.361679	69.289531
Tok bor	Toshkent, Chilonzor tumani, Zarqoʻrgʻon mahalla fuqarolar yigʻini	Kun-u tun	41.271666	69.202
Mustang Energy		Kun-u tun	41.278772	69.323767
Megawatt Energy		Kun-u tun	41.318655	69.340151
Megawatt Energy		Kun-u tun	41.382836	69.298239
TOK BOR		Kun-u tun	41.297978	69.311632
TOK BOR		Kun-u tun	41.297978	69.311632
Spectre Energy		Kun-u tun	41.346088	69.390803
Megawatt Energy	Toshkent, Yashnobod tumani, Fidoyilar mahalla fuqarolar yigʻini	Kun-u tun	41.300708	69.320944
Tokbor	Toshkent, Temur Malik koʻchasi	Kun-u tun	41.353745	69.34698
Tok bor		Ish soatlari ko‘rsatilmagan	41.322369	69.219954
Megawatt Energy	Toshkent, Qoratosh koʻchasi	Kun-u tun	41.314999	69.235118
EnerGo	Toshkent, Neʼmat berk koʻchasi	Ish soatlari ko‘rsatilmagan	41.337042	69.31518
Zaryadlash stantsiyasi Tok bor	Toshkent, Sergeli tumani, Habibiy mahalla fuqarolar yigʻini	Kun-u tun	41.223503	69.208589
Megawatt Energy	Toshkent, Boku koʻchasi	Kun-u tun	41.289955	69.314413
Spectre	Toshkent, Temur Malik koʻchasi	Kun-u tun	41.322292	69.363531
Megawatt Energy	Toshkent, Boku koʻchasi	Kun-u tun	41.289898	69.314426
Trianon Energy		Tashkilot boshqa joyga ko‘chdi	41.375329	69.14746
Urban Power		Bungacha yopiq: 09:00	41.304648	69.321113
Tokbor	Toshkent, Yunusobod tumani, Bogʻiboʻston mahalla fuqarolar yigʻini	Kun-u tun	41.348242	69.315735
Megawatt Energy		Ish soatlari ko‘rsatilmagan	41.290408	69.315319
Trianon Energy		Kun-u tun	41.22907	69.329304
Tok Bor	Toshkent, Yashnobod tumani, Amir Temur mahalla fuqarolar yigʻini	Ish soatlari ko‘rsatilmagan	41.305364	69.356249
Tok bor	Toshkent, Binkat ko'chasi	Ish soatlari ko‘rsatilmagan	41.36991	69.272349
Megawatt Energy		Ish soatlari ko‘rsatilmagan	41.25621	69.206928
Tokbor	Toshkent, Katta halqa yo‘li	Kun-u tun	41.372334	69.323053
Tokbor	Toshkent, Yashnobod tumani, Choʻlpon mahalla fuqarolar yigʻini	Kun-u tun	41.303866	69.305414
K Watt		Kun-u tun	41.24474	69.310298
Tokbor	Toshkent, Sergeli tumani, Bobur aholi punkti	Kun-u tun	41.236738	69.214278
Tokbor		Kun-u tun	41.34401	69.199408
ND Charger		Ish soatlari ko‘rsatilmagan	41.269513	69.263586
Spectre Energy	Toshkent, Qorasaroy koʻchasi	Kun-u tun	41.364046	69.240892
Telecom Charge		Kun-u tun	41.325725	69.317955
Tokbor	Toshkent, Yashnobod tumani, Choʻlpon mahalla fuqarolar yigʻini	Kun-u tun	41.304566	69.303561
Telecom Charge		Kun-u tun	41.353897	69.213876
My Tok	Toshkent, Yakkasaroy tumani, Muhandislar mahalla fuqarolar yigʻini	Kun-u tun	41.273534	69.247491
Tokbor		Kun-u tun	41.305788	69.333324
ZTY	Toshkent, Yunusobod tumani, Minor mahalla fuqarolar yigʻini	Bungacha yopiq: 10:00	41.336474	69.275652
Megawatt Energy	Toshkent, Sergeli tumani, Yuqori Darxon mahalla fuqarolar yigʻini	Kun-u tun	41.236928	69.208953
Beon		Bungacha yopiq: 09:00	41.289154	69.221157
Tok bor		Kun-u tun	41.248011	69.325656
K Watt		Kun-u tun	41.351263	69.33351
Mustang Energy	Toshkent, Olmazor tumani, Miskin mahalla fuqarolar yigʻini	Kun-u tun	41.353713	69.266792
Tokbor		Bungacha yopiq: 10:00	41.339613	69.254004
Tok bor	Toshkent, Parkent koʻchasi	Kun-u tun	41.313385	69.331174
EnerGo		Kun-u tun	41.23691	69.214131
Tok Bor	Toshkent, Yashnobod tumani, Mahtumquli koʻchasi	Kun-u tun	41.303699	69.315366
Megawatt Energy	Toshkent, Yunusobod tumani, Islomobod mahalla fuqarolar yigʻini	Kun-u tun	41.383856	69.283003
Tok bor	Toshkent, Yunusobod tumani, Iftixor mahalla fuqarolar yigʻini	Ish soatlari ko‘rsatilmagan	41.347453	69.286193
Megawatt Energy		Kun-u tun	41.374872	69.305558
Tokbor	Toshkent, Yunusobod tumani, Qadirdon mahalla fuqarolar yigʻini	Ish soatlari ko‘rsatilmagan	41.367228	69.306011
Tokbor	Toshkent, Sergeli tumani, Sergeli-4 mavzesi	Kun-u tun	41.215744	69.219497
Elektromobil quvvatlash stansiyasi	Toshkent, Shayxontohur tumani, Jarariq ko‘chasi	Kun-u tun	41.339258	69.17801
Megawatt Energy		Kun-u tun	41.323824	69.34767
Mustang Energy	Toshkent, Yunusobod tumani, Yunusobod dahasi, 16-mavze	Kun-u tun	41.382496	69.303943
Megawatt Energy	Toshkent, Mirzo Ulugʻbek tumani, Sayram koʻchasi	Kun-u tun	41.327856	69.325122
Megawatt Energy		Kun-u tun	41.297713	69.327445
Tok bor	Toshkent, Mirobod tumani, Tong Yulduzi mahalla fuqarolar yigʻini	Ish soatlari ko‘rsatilmagan	41.28855	69.295817
Megawatt Energy		Kun-u tun	41.2528	69.30206
Lakokraska Voltauto	Toshkent, Neʼmat berk koʻchasi	Kun-u tun	41.336963	69.315434
Megawatt Energy	Toshkent, Bogʻi Shamol turar-joy majmuasi	Kun-u tun	41.354214	69.335738
Megawatt Energy		Kun-u tun	41.218414	69.225592
Elektr to'ldirish stantsiyasi Leapmotor		Ish soatlari ko‘rsatilmagan	41.345482	69.261183
Megavat Motors		Kun-u tun	41.327108	69.229286
Protok		Bungacha yopiq: 09:00	41.22417	69.222141
Megawatt Energy	Toshkent, Yunusobod tumani, 2-Otchopar mahalla fuqarolar yigʻini	Kun-u tun	41.355977	69.303521
Megawatt Energy		Ish soatlari ko‘rsatilmagan	41.334161	69.325296
Spectre Energy	Toshkent, Uchtepa tumani, Hamdoʻst mahalla fuqarolar yigʻini	Kun-u tun	41.271922	69.175388
Telecom Charge		Kun-u tun	41.362362	69.213944
Tezroq	Toshkent, Sergeli tumani, Soʻgʻdiyona mahalla fuqarolar yigʻini	Kun-u tun	41.22641	69.236447
Spectre Energy	Toshkent, Shota Rustaveli 1-tor koʻchasi	Kun-u tun	41.271488	69.242346
Tokbor		Kun-u tun	41.312972	69.332125
Megawatt Energy		Ish soatlari ko‘rsatilmagan	41.246685	69.206102
Tokbor		Kun-u tun	41.312012	69.3173
Telecom Charge		Kun-u tun	41.252115	69.311367
Tok bor	Toshkent, Mirzo Ulugʻbek tumani, Katta Yalangʻoch Ota mahalla fuqarolar yigʻini	Kun-u tun	41.354572	69.35491
K Watt		Kun-u tun	41.224543	69.223322
Tok bor	Toshkent, Chilonzor tumani, Katta Doʻmbirobod mahalla fuqarolar yigʻini	Ish soatlari ko‘rsatilmagan	41.254775	69.196871
Tok Bor	Toshkent, Yunusobod tumani, Bogʻishamol mahalla fuqarolar yigʻini	Kun-u tun	41.366475	69.286885
Megawatt Energy		Kun-u tun	41.342272	69.360527
Tokbor	Toshkent, Sergeli tumani, Yangi Sergeli koʻchasi	Kun-u tun	41.237194	69.213509
Volt Auto	Toshkent, Yunusobod tumani, Yunusobod dahasi, 2-mavze	Ish soatlari ko‘rsatilmagan	41.363298	69.287033
Mustang Energy	Toshkent, Zargarlik koʻchasi	Kun-u tun	41.26023	69.161653
Mustang Energy		Kun-u tun	41.241986	69.172244
Tok bor		Kun-u tun	41.343787	69.205525
Megawatt Energy	Toshkent, Sergeli tumani, Nomdanak mahalla fuqarolar yigʻini, Ziyokor 2-tor ko'chasi	Kun-u tun	41.24401	69.289592
Tok bor	Toshkent, Yashnobod tumani, Amir Temur mahalla fuqarolar yigʻini	Kun-u tun	41.307169	69.35196
EnerGo	Toshkent viloyati, Qibray tumani, Oybek mahalla fuqarolar yigʻini	Kun-u tun	41.367534	69.334857
Tokbor	Toshkent, Shayxontohur tumani, Boʻston mahalla fuqarolar yigʻini	Kun-u tun	41.345278	69.204136
Megawatt Energy	Toshkent, Bektemir tumani, Oltintopgan mahalla fuqarolar yigʻini	Kun-u tun	41.220045	69.310599
Megawatt Energy		Kun-u tun	41.355436	69.302039
Mustang Energy	Toshkent, Yashnobod tumani, Doʻstobod mahalla fuqarolar yigʻini	Kun-u tun	41.302003	69.342824
Tokbor	Toshkent, Shayxontohur tumani, Oʻzbekiston mahalla fuqarolar yigʻini	Kun-u tun	41.349031	69.180058
Spectre Energy	Toshkent, Mirzo Ulugʻbek tumani, Alisher Navoiy mahalla fuqarolar yigʻini	Kun-u tun	41.324994	69.363666
K Watt		Kun-u tun	41.315817	69.32609
Tok Bor	Toshkent, Mirobod tumani, Vodil koʻchasi	Ish soatlari ko‘rsatilmagan	41.287857	69.29944
Ebb Charger	Toshkent viloyati, Zangiota tumani	Kun-u tun	41.223702	69.141956
Tok bor	Toshkent, Anorzor koʻchasi	Ish soatlari ko‘rsatilmagan	41.359488	69.278372
Tok bor	Toshkent, Yunusobod tumani, Bogʻishamol koʻchasi	Kun-u tun	41.356158	69.335106
Tok-Bor	Toshkent, Yunusobod tumani, Qadirdon mahalla fuqarolar yigʻini	Ish soatlari ko‘rsatilmagan	41.363197	69.306266
Mustang Energy		Kun-u tun	41.254007	69.20444
Megawatt Energy	Toshkent viloyati, Zangiota tumani, Chig‘atoy Oqtepa qishloq fuqarolari yigʻini	Kun-u tun	41.365648	69.18052
Tok Bor	Toshkent, Mirzo Ulugʻbek tumani, Koʻhna Mevazor mahalla fuqarolar yigʻini	Kun-u tun	41.310936	69.34695
Tokbor	Toshkent, Katta halqa yo‘li	Kun-u tun	41.367507	69.327232
Elektromobil quvvatlash stansiyasi	Toshkent, Soʻgalli ota koʻchasi	Ish soatlari ko‘rsatilmagan	41.266942	69.159007
Mustang Energy		Kun-u tun	41.310763	69.344455
TOK BOR	Toshkent, Pahlavon Mahmud koʻchasi	Kun-u tun	41.303986	69.306536
Spectre	Toshkent, Bektemir tumani, Nurafshon mahalla fuqarolar yigʻini, Porloq koʻchasi	Kun-u tun	41.237707	69.320835
Elektr transportini zaryadlash stantsiyasi	Toshkent, Sergeli tumani, Koʻhna Qumariq mahalla fuqarolar yigʻini	Kun-u tun	41.243956	69.252994
Tok bor	Toshkent, Mirzo Ulugʻbek tumani, Salor Boʻyi 2-berk koʻchasi	Ish soatlari ko‘rsatilmagan	41.328903	69.313337
Tokbor		Kun-u tun	41.284309	69.341173
Spectre Energy	Toshkent, Katta halqa yoʻli koʻchasi, 69	Kun-u tun	41.345054	69.16442
Megawatt Energy		Kun-u tun	41.232363	69.208402
Mustang Energy		Kun-u tun	41.252005	69.217638
Megawatt Energy		Kun-u tun	41.268055	69.181318
Zty	Toshkent, Fargʻona Yoʻli	Ish soatlari ko‘rsatilmagan	41.241537	69.328303
Elektromobil quvvatlash stansiyasi	Toshkent, Olmazor tumani, Kichik halqa yoʻli	Ish soatlari ko‘rsatilmagan	41.348058	69.24996
Elektr avtomobillarni quvvatlash stansiyasi		Ish soatlari ko‘rsatilmagan	41.29285	69.214247
Megawatt Energy		Kun-u tun	41.388926	69.217947
Spectre Energy	Toshkent, Sergeli tumani, Qipchoq shoh ko‘chasi	Kun-u tun	41.238651	69.27486
Tokbor	Toshkent viloyati, Qibray tumani, Salar shaharchasi, Gulimamur ko'chasi	Kun-u tun	41.364165	69.333504
Mustang Energy	Toshkent, Obod 2-koʻchasi	Kun-u tun	41.244274	69.230564
Mustang Energy		Kun-u tun	41.243719	69.30617
Tok Bor		Ish soatlari ko‘rsatilmagan	41.337782	69.222637
Energo		Kun-u tun	41.225672	69.367046
Tokbor		Kun-u tun	41.349367	69.178101
EnerGo		Kun-u tun	41.240009	69.317876
Spectre Energy		Kun-u tun	41.358783	69.213323
Elektromobillar uchun quvvatlash stansiyasi	Toshkent, Markaz-2 Mavzesi	Ish soatlari ko‘rsatilmagan	41.319559	69.284194
Elektr avtomobillarni quvvatlash stansiyasi	Toshkent, Mehrjon koʻchasi	Ish soatlari ko‘rsatilmagan	41.288101	69.284775
Tokbor		Bungacha yopiq: 10:00	41.339513	69.254375
Telecom Charge		Kun-u tun	41.373236	69.287795
K Watt		Kun-u tun	41.293014	69.179444
Nd Charger		Ish soatlari ko‘rsatilmagan	41.372797	69.310844
Nd Charger	Toshkent, Anhor boʻyi koʻchasi	Kun-u tun	41.33745	69.274451
Tok bor		Kun-u tun	41.316765	69.356728
Zaryadlash stantsiyasi		Ish soatlari ko‘rsatilmagan	41.324171	69.244515
Megawatt Energy	Toshkent, Sergeli tumani, Soʻgʻdiyona mahalla fuqarolar yigʻini	Kun-u tun	41.222916	69.223572
Quwatt		Kun-u tun	41.312382	69.316578
Megawatt Energy	Toshkent, Bektemir tumani, Toshkent halqa avtomobil yoʼli ko'chasi	Kun-u tun	41.249157	69.353097
Tok Bor	Toshkent, Olmazor tumani, Ziyo mahalla fuqarolar yigʻini	Ish soatlari ko‘rsatilmagan	41.355929	69.203908
Megawatt Energy	Toshkent, Bektemir tumani, Nurafshon mahalla fuqarolar yigʻini	Kun-u tun	41.238904	69.327567
ND Charger	Toshkent, Yunusobod tumani, Qashqar dahasi	Ish soatlari ko‘rsatilmagan	41.318951	69.27826
K Watt		Kun-u tun	41.254477	69.343679
EnerGo	Toshkent, Yashnobod tumani, Choʻlpon mahalla fuqarolar yigʻini	Kun-u tun	41.299428	69.305876
Spectre Energy	Toshkent, Chinobod koʻchasi	Kun-u tun	41.357063	69.314186
Quvvatlash stansiyasi	Toshkent, Chilonzor tumani, Tirsakobod mahalla fuqarolar yigʻini	Ish soatlari ko‘rsatilmagan	41.25378	69.190166
Megawatt Energy		Bungacha yopiq: 09:00	41.223595	69.224472
Elektromobillarni zaryadlash stansiyasi	Toshkent, Bunyodkor shoh koʻchasi (dublyor)	Ish soatlari ko‘rsatilmagan	41.271484	69.202093
Megawatt Energy		Kun-u tun	41.22312	69.223722
Megawatt Energy		Kun-u tun	41.223142	69.22379
Spectre Energy		Kun-u tun	41.238277	69.328268
Tok Bor	Toshkent, Yashnobod tumani, Mahtumquli koʻchasi	Ish soatlari ko‘rsatilmagan	41.303953	69.312277
Mustang	Toshkent, Mohidil ko'chasi	Ish soatlari ko‘rsatilmagan	41.252054	69.217705
Megawatt Energy		Kun-u tun	41.223103	69.223658
Megawatt Energy		Kun-u tun	41.222965	69.223555
Megawatt Energy		Bungacha yopiq: 09:00	41.223053	69.224634
Megawatt Energy		Kun-u tun	41.225686	69.145045
Voltauto		Kun-u tun	41.355443	69.302266
Zaryadlash stantsiyasi		Ish soatlari ko‘rsatilmagan	41.316389	69.252535
Beon		Kun-u tun	41.235572	69.215148
Tokbor	Toshkent, Yashnobod tumani, Doʻstobod mahalla fuqarolar yigʻini	Kun-u tun	41.306046	69.333215
Tok Bor		Ish soatlari ko‘rsatilmagan	41.3141	69.328368
ND Charger		Ish soatlari ko‘rsatilmagan	41.345099	69.328604
K Watt	Toshkent, Bogʻbogʻ koʻchasi	Kun-u tun	41.29339	69.180473
Elektromobil quvvatlash stansiyasi		Kun-u tun	41.229777	69.204863
Tokbor	Toshkent, Yunusobod tumani, Bogʻishamol koʻchasi	Kun-u tun	41.358169	69.336772
GreenTE	Toshkent, Temur Malik koʻchasi	Kun-u tun	41.355258	69.344626
Spectre Energy	Toshkent, Olmazor tumani, Ibrohim Ota mahalla fuqarolar yigʻini	Kun-u tun	41.365483	69.24251
Tok Bor		Kun-u tun	41.332445	69.322291
Tok bor	Toshkent, Mirzo Ulugʻbek tumani, Temuriylar mahalla fuqarolar yigʻini	Ish soatlari ko‘rsatilmagan	41.320804	69.3634
Zaryadlash stantsiyasi	Toshkent, Koʻkcha Darvoza koʻchasi	Ish soatlari ko‘rsatilmagan	41.31952	69.227141
Megawatt Energy		Kun-u tun	41.2763	69.365229
Megawatt Energy	Toshkent, Choshtepa koʻchasi	Kun-u tun	41.222393	69.176898
ND Charger	Toshkent, Yangihayot tumani, Yangi Darxon mahalla fuqarolar yigʻini	Ish soatlari ko‘rsatilmagan	41.22306	69.199314
Quvvatlash stansiyasi	Toshkent, Katta halqa yoʻli koʻchasi	Ish soatlari ko‘rsatilmagan	41.364956	69.18027
Quvvatlash stansiyasi	Toshkent, Xonobodtepa shoh ko‘chasi	Ish soatlari ko‘rsatilmagan	41.243804	69.229422
Megawatt Energy	Toshkent, Yunusobod tumani, Qashqar mahalla fuqarolar yigʻini	Ish soatlari ko‘rsatilmagan	41.311345	69.276184
Quvvatlash stansiyasi	Toshkent, Chilonzor tumani, Katta Doʻmbirobod mahalla fuqarolar yigʻini	Ish soatlari ko‘rsatilmagan	41.257597	69.196245
Quvvatlash stansiyasi	Toshkent, Rixsiliy koʻchasi	Ish soatlari ko‘rsatilmagan	41.375427	69.271957
Megawatt Kinder Garten		Ish soatlari ko‘rsatilmagan	41.342171	69.360475
Toshkent-2 xalqaro aeroporti	Toshkent, Sergeli tumani, Oltinvodiy mahalla fuqarolar yigʻini	Kun-u tun	41.263698	69.26582
Beon		Kun-u tun	41.229548	69.204566
K Watt		Kun-u tun	41.299511	69.342153
Elektr transport vositalarini zaryadlash stantsiyasi		Kun-u tun	41.279907	69.269021
Elektr transportini zaryadlash stantsiyasi	Toshkent, Xonobodtepa shoh ko‘chasi	Ish soatlari ko‘rsatilmagan	41.240364	69.211848
Megawatt Energy		Kun-u tun	41.22586	69.145977
Elektromobillar uchun quvvatlash stansiyasi	Toshkent, Buyuk Ipak Yoʻli koʻchasi	Ish soatlari ko‘rsatilmagan	41.351788	69.384755
Elektr avtomobillarni quvvatlash stansiyasi	Toshkent, Mirzo Ulugʻbek tumani, Elobod mahalla fuqarolar yigʻini	Ish soatlari ko‘rsatilmagan	41.328487	69.333994
Mustang Energy		Kun-u tun	41.245051	69.341109
Beon	Toshkent, Sergeli tumani, Bunyodobod mahalla fuqarolar yigʻini	Kun-u tun	41.238599	69.211636
Gigawatt	Toshkent, Yunusobod tumani, Yangitarnov mahalla fuqarolar yigʻini	Ish soatlari ko‘rsatilmagan	41.340777	69.303356
Tokbor	Toshkent, Shayxontohur tumani, Boʻston mahalla fuqarolar yigʻini	Kun-u tun	41.345048	69.204009
Tok Bor	Toshkent, Yunusobod tumani, Bog‘ishamol 1-tor koʻchasi	Ish soatlari ko‘rsatilmagan	41.338162	69.311433
Elektr to'ldirish stantsiyasi		Kun-u tun	41.332849	69.360498
Beon		Kun-u tun	41.232507	69.208024
Zaryadlash stantsiyasi		Ish soatlari ko‘rsatilmagan	41.326245	69.348682
Tok bor	M39	Ish soatlari ko‘rsatilmagan	41.229043	69.150013
Pro-tok	Toshkent, Olmazor tumani, Ziyo mahalla fuqarolar yigʻini	Kun-u tun	41.356064	69.203794
Tokbor		Kun-u tun	41.240927	69.212253
Elektr transport vositalarini zaryadlash stansiyasi		Ish soatlari ko‘rsatilmagan	41.231979	69.206851
Elektr to'ldirish stantsiyasi	Toshkent, Chilonzor tumani, Katta Doʻmbirobod mahalla fuqarolar yigʻini	Kun-u tun	41.258327	69.196413
Mustang	Toshkent, Sergeli tumani, Yangi Sergeli koʻchasi	Ish soatlari ko‘rsatilmagan	41.251983	69.217716
Elektr avtomobillarni quvvatlash stansiyasi	Toshkent, Katta halqa yo‘li	Ish soatlari ko‘rsatilmagan	41.373204	69.322514
Elektr transportini zaryadlash stantsiyasi	Toshkent, Sergeli tumani, Yuqori Darxon mahalla fuqarolar yigʻini	Ish soatlari ko‘rsatilmagan	41.235322	69.208062
Tok Bor		Ish soatlari ko‘rsatilmagan	41.241298	69.212527
Quvvatlash stansiyasi		Ish soatlari ko‘rsatilmagan	41.298607	69.350194
Spectre		Ish soatlari ko‘rsatilmagan	41.239111	69.210441
Quvvatlash stansiyasi		Ish soatlari ko‘rsatilmagan	41.254435	69.343722
Quvvatlash stansiyasi		Ish soatlari ko‘rsatilmagan	41.346049	69.390852
Quvvatlash stansiyasi		Ish soatlari ko‘rsatilmagan	41.229555	69.20458
Tok Bor	Toshkent, Xonobodtepa shoh ko‘chasi	Ish soatlari ko‘rsatilmagan	41.240624	69.212023
Beon		Kun-u tun	41.22974	69.20494
</user_query>